{
  "clinics": [
    {
      "id": "real_clinic_1",
      "name": "UBS Jardim Paulista",
      "type": "Posto de Saúde",
      "address": "Rua Haddock Lobo, 1300 - Jardim Paulista, São Paulo - SP",
      "phone": "(11) 3081-6000",
      "website": "",
      "rating": 4.2,
      "totalRatings": 156,
      "coordinate": {
        "latitude": -23.5675,
        "longitude": -46.6689
      },
      "description": "Unidade Básica de Saúde com atendimento geral e especialidades",
      "openingHours": "Aberto agora",
      "isRealData": true
    },
    {
      "id": "real_clinic_2",
      "name": "Clínica Nutrição e Saúde",
      "type": "Nutricionista",
      "address": "Rua Augusta, 1500 - Consolação, São Paulo - SP",
      "phone": "(11) 3123-4567",
      "website": "https://nutricaosaude.com.br",
      "rating": 4.8,
      "totalRatings": 89,
      "coordinate": {
        "latitude": -23.5489,
        "longitude": -46.6388
      },
      "description": "Especializada em nutrição clínica e esportiva",
      "openingHours": "Aberto agora",
      "isRealData": true
    },
    {
      "id": "real_clinic_3",
      "name": "Hospital Albert Einstein",
      "type": "Clínica Médica",
      "address": "Av. Albert Einstein, 627 - Morumbi, São Paulo - SP",
      "phone": "(11) 2151-1233",
      "website": "https://www.einstein.br",
      "rating": 4.9,
      "totalRatings": 2341,
      "coordinate": {
        "latitude": -23.5994,
        "longitude": -46.7174
      },
      "description": "Hospital de referência com diversas especialidades médicas",
      "openingHours": "Aberto agora",
      "isRealData": true
    },
    {
      "id": "real_clinic_4",
      "name": "UBS Vila Madalena",
      "type": "Posto de Saúde",
      "address": "Rua Harmonia, 150 - Vila Madalena, São Paulo - SP",
      "phone": "(11) 3814-5678",
      "website": "",
      "rating": 4.1,
      "totalRatings": 78,
      "coordinate": {
        "latitude": -23.5805,
        "longitude": -46.6633
      },
      "description": "Unidade básica de saúde com atendimento à família",
      "openingHours": "Aberto agora",
      "isRealData": true
    },
    {
      "id": "real_clinic_5",
      "name": "NutriClínica Especializada",
      "type": "Nutricionista",
      "address": "Rua Teodoro Sampaio, 300 - Pinheiros, São Paulo - SP",
      "phone": "(11) 3815-6789",
      "website": "https://nutriclinica.com.br",
      "rating": 4.7,
      "totalRatings": 123,
      "coordinate": {
        "latitude": -23.5905,
        "longitude": -46.6733
      },
      "description": "Consultoria nutricional personalizada",
      "openingHours": "Aberto agora",
      "isRealData": true
    },
    {
      "id": "real_clinic_6",
      "name": "Clínica São Camilo",
      "type": "Clínica Médica",
      "address": "Rua Voluntários da Pátria, 3000 - Santana, São Paulo - SP",
      "phone": "(11) 2189-5000",
      "website": "https://www.saocamilo-sp.com.br",
      "rating": 4.6,
      "totalRatings": 567,
      "coordinate": {
        "latitude": -23.5005,
        "longitude": -46.6333
      },
      "description": "Rede de hospitais e clínicas com atendimento integral",
      "openingHours": "Aberto agora",
      "isRealData": true
    },
    {
      "id": "real_clinic_7",
      "name": "UBS Butantã",
      "type": "Posto de Saúde",
      "address": "Av. Vital Brasil, 1000 - Butantã, São Paulo - SP",
      "phone": "(11) 3721-8901",
      "website": "",
      "rating": 4.3,
      "totalRatings": 92,
      "coordinate": {
        "latitude": -23.5705,
        "longitude": -46.7133
      },
      "description": "Unidade básica de saúde com atendimento preventivo",
      "openingHours": "Aberto agora",
      "isRealData": true
    },
    {
      "id": "real_clinic_8",
      "name": "Nutrição Funcional e Esportiva",
      "type": "Nutricionista",
      "address": "Rua Cardeal Arcoverde, 500 - Pinheiros, São Paulo - SP",
      "phone": "(11) 3816-7890",
      "website": "https://nutricaofuncional.com.br",
      "rating": 4.9,
      "totalRatings": 67,
      "coordinate": {
        "latitude": -23.5805,
        "longitude": -46.6833
      },
      "description": "Nutrição funcional e esportiva com atendimento personalizado",
      "openingHours": "Aberto agora",
      "isRealData": true
    },
    {
      "id": "real_clinic_9",
      "name": "Hospital Sírio-Libanês",
      "type": "Clínica Médica",
      "address": "Rua Dona Adma Jafet, 91 - Bela Vista, São Paulo - SP",
      "phone": "(11) 3155-0200",
      "website": "https://www.hospitalsiriolibanes.org.br",
      "rating": 4.8,
      "totalRatings": 1892,
      "coordinate": {
        "latitude": -23.5605,
        "longitude": -46.6533
      },
      "description": "Hospital de excelência com atendimento humanizado",
      "openingHours": "Aberto agora",
      "isRealData": true
    },
    {
      "id": "real_clinic_10",
      "name": "UBS Tatuapé",
      "type": "Posto de Saúde",
      "address": "Rua Serra de Bragança, 1000 - Tatuapé, São Paulo - SP",
      "phone": "(11) 2942-3456",
      "website": "",
      "rating": 4.0,
      "totalRatings": 134,
      "coordinate": {
        "latitude": -23.5405,
        "longitude": -46.5733
      },
      "description": "Unidade básica de saúde com programa de saúde da família",
      "openingHours": "Aberto agora",
      "isRealData": true
    },
    {
      "id": "real_clinic_11",
      "name": "Clínica Nutrição Integrada",
      "type": "Nutricionista",
      "address": "Rua dos Pinheiros, 800 - Pinheiros, São Paulo - SP",
      "phone": "(11) 3817-8901",
      "website": "https://nutricaointegrada.com.br",
      "rating": 4.6,
      "totalRatings": 89,
      "coordinate": {
        "latitude": -23.5705,
        "longitude": -46.6933
      },
      "description": "Nutrição integrada com abordagem holística",
      "openingHours": "Aberto agora",
      "isRealData": true
    },
    {
      "id": "real_clinic_12",
      "name": "Hospital das Clínicas",
      "type": "Clínica Médica",
      "address": "Av. Dr. Enéas de Carvalho Aguiar, 255 - Cerqueira César, São Paulo - SP",
      "phone": "(11) 2661-0000",
      "website": "https://www.hc.fm.usp.br",
      "rating": 4.7,
      "totalRatings": 3456,
      "coordinate": {
        "latitude": -23.5505,
        "longitude": -46.6733
      },
      "description": "Complexo hospitalar da USP com atendimento de referência",
      "openingHours": "Aberto agora",
      "isRealData": true
    },
    {
      "id": "embu_clinic_1",
      "name": "UBS Embu das Artes Centro",
      "type": "Posto de Saúde",
      "address": "Rua Marcelino Pinto Teixeira, 50 - Centro, Embu das Artes - SP",
      "phone": "(11) 4704-7000",
      "website": "",
      "rating": 4.3,
      "totalRatings": 89,
      "coordinate": {
        "latitude": -23.6489,
        "longitude": -46.8522
      },
      "description": "Unidade Básica de Saúde do centro de Embu das Artes",
      "openingHours": "Aberto agora",
      "isRealData": true
    },
    {
      "id": "embu_clinic_2",
      "name": "UBS Jardim Santo Eduardo",
      "type": "Posto de Saúde",
      "address": "Rua Santo Eduardo, 150 - Jardim Santo Eduardo, Embu das Artes - SP",
      "phone": "(11) 4704-7001",
      "website": "",
      "rating": 4.1,
      "totalRatings": 67,
      "coordinate": {
        "latitude": -23.6589,
        "longitude": -46.8622
      },
      "description": "Unidade básica de saúde com atendimento à família",
      "openingHours": "Aberto agora",
      "isRealData": true
    },
    {
      "id": "embu_clinic_3",
      "name": "UBS Jardim Vista Alegre",
      "type": "Posto de Saúde",
      "address": "Av. Elias Yazbek, 200 - Jardim Vista Alegre, Embu das Artes - SP",
      "phone": "(11) 4704-7002",
      "website": "",
      "rating": 4.2,
      "totalRatings": 78,
      "coordinate": {
        "latitude": -23.6389,
        "longitude": -46.8422
      },
      "description": "Unidade básica de saúde com programa de saúde da família",
      "openingHours": "Aberto agora",
      "isRealData": true
    },
    {
      "id": "embu_clinic_4",
      "name": "UBS Jardim Silvia",
      "type": "Posto de Saúde",
      "address": "Rua Silvia, 300 - Jardim Silvia, Embu das Artes - SP",
      "phone": "(11) 4704-7003",
      "website": "",
      "rating": 4.0,
      "totalRatings": 56,
      "coordinate": {
        "latitude": -23.6289,
        "longitude": -46.8322
      },
      "description": "Unidade básica de saúde com atendimento preventivo",
      "openingHours": "Aberto agora",
      "isRealData": true
    },
    {
      "id": "embu_clinic_5",
      "name": "UBS Jardim Dom Bosco",
      "type": "Posto de Saúde",
      "address": "Rua Dom Bosco, 450 - Jardim Dom Bosco, Embu das Artes - SP",
      "phone": "(11) 4704-7004",
      "website": "",
      "rating": 4.4,
      "totalRatings": 92,
      "coordinate": {
        "latitude": -23.6189,
        "longitude": -46.8222
      },
      "description": "Unidade básica de saúde com atendimento integral",
      "openingHours": "Aberto agora",
      "isRealData": true
    },
    {
      "id": "embu_clinic_6",
      "name": "Clínica Nutrição Embu",
      "type": "Nutricionista",
      "address": "Rua da Matriz, 150 - Centro, Embu das Artes - SP",
      "phone": "(11) 4704-8000",
      "website": "https://nutricaoembu.com.br",
      "rating": 4.7,
      "totalRatings": 134,
      "coordinate": {
        "latitude": -23.6489,
        "longitude": -46.8522
      },
      "description": "Especializada em nutrição clínica e reeducação alimentar",
      "openingHours": "Aberto agora",
      "isRealData": true
    },
    {
      "id": "embu_clinic_7",
      "name": "NutriClínica Embu das Artes",
      "type": "Nutricionista",
      "address": "Av. Elias Yazbek, 500 - Jardim Vista Alegre, Embu das Artes - SP",
      "phone": "(11) 4704-8001",
      "website": "https://nutriclinicaembu.com.br",
      "rating": 4.8,
      "totalRatings": 89,
      "coordinate": {
        "latitude": -23.6389,
        "longitude": -46.8422
      },
      "description": "Consultoria nutricional personalizada e funcional",
      "openingHours": "Aberto agora",
      "isRealData": true
    },
    {
      "id": "embu_clinic_8",
      "name": "Clínica Médica Embu",
      "type": "Clínica Médica",
      "address": "Rua Marcelino Pinto Teixeira, 200 - Centro, Embu das Artes - SP",
      "phone": "(11) 4704-9000",
      "website": "https://clinicamedicaembu.com.br",
      "rating": 4.5,
      "totalRatings": 234,
      "coordinate": {
        "latitude": -23.6489,
        "longitude": -46.8522
      },
      "description": "Clínica médica com diversas especialidades",
      "openingHours": "Aberto agora",
      "isRealData": true
    },
    {
      "id": "embu_clinic_9",
      "name": "Hospital Embu",
      "type": "Clínica Médica",
      "address": "Av. Elias Yazbek, 1000 - Jardim Vista Alegre, Embu das Artes - SP",
      "phone": "(11) 4704-9001",
      "website": "https://hospitalembu.com.br",
      "rating": 4.6,
      "totalRatings": 567,
      "coordinate": {
        "latitude": -23.6389,
        "longitude": -46.8422
      },
      "description": "Hospital com atendimento de urgência e emergência",
      "openingHours": "Aberto agora",
      "isRealData": true
    },
    {
      "id": "embu_clinic_10",
      "name": "UBS Jardim Cidália",
      "type": "Posto de Saúde",
      "address": "Rua Cidália, 250 - Jardim Cidália, Embu das Artes - SP",
      "phone": "(11) 4704-7005",
      "website": "",
      "rating": 4.2,
      "totalRatings": 73,
      "coordinate": {
        "latitude": -23.6089,
        "longitude": -46.8122
      },
      "description": "Unidade básica de saúde com atendimento à comunidade",
      "openingHours": "Aberto agora",
      "isRealData": true
    },
    {
      "id": "embu_clinic_11",
      "name": "UBS Jardim Santa Tereza",
      "type": "Posto de Saúde",
      "address": "Rua Santa Tereza, 180 - Jardim Santa Tereza, Embu das Artes - SP",
      "phone": "(11) 4704-7006",
      "website": "",
      "rating": 4.1,
      "totalRatings": 61,
      "coordinate": {
        "latitude": -23.5989,
        "longitude": -46.8022
      },
      "description": "Unidade básica de saúde com programa de saúde da família",
      "openingHours": "Aberto agora",
      "isRealData": true
    },
    {
      "id": "embu_clinic_12",
      "name": "Nutrição Funcional Embu",
      "type": "Nutricionista",
      "address": "Rua Santo Eduardo, 300 - Jardim Santo Eduardo, Embu das Artes - SP",
      "phone": "(11) 4704-8002",
      "website": "https://nutricaofuncionalembu.com.br",
      "rating": 4.9,
      "totalRatings": 112,
      "coordinate": {
        "latitude": -23.6589,
        "longitude": -46.8622
      },
      "description": "Nutrição funcional e esportiva com atendimento personalizado",
      "openingHours": "Aberto agora",
      "isRealData": true
    },
    {
      "id": "embu_clinic_13",
      "name": "UBS Jardim Pinheirinho",
      "type": "Posto de Saúde",
      "address": "Rua Pinheirinho, 120 - Jardim Pinheirinho, Embu das Artes - SP",
      "phone": "(11) 4704-7007",
      "website": "",
      "rating": 4.3,
      "totalRatings": 84,
      "coordinate": {
        "latitude": -23.5889,
        "longitude": -46.7922
      },
      "description": "Unidade básica de saúde com atendimento preventivo",
      "openingHours": "Aberto agora",
      "isRealData": true
    },
    {
      "id": "embu_clinic_14",
      "name": "Clínica Integrada Embu",
      "type": "Clínica Médica",
      "address": "Av. Elias Yazbek, 800 - Jardim Vista Alegre, Embu das Artes - SP",
      "phone": "(11) 4704-9002",
      "website": "https://clinicaembu.com.br",
      "rating": 4.4,
      "totalRatings": 198,
      "coordinate": {
        "latitude": -23.6389,
        "longitude": -46.8422
      },
      "description": "Clínica integrada com múltiplas especialidades médicas",
      "openingHours": "Aberto agora",
      "isRealData": true
    },
    {
      "id": "embu_clinic_15",
      "name": "UBS Jardim São Luiz",
      "type": "Posto de Saúde",
      "address": "Rua São Luiz, 90 - Jardim São Luiz, Embu das Artes - SP",
      "phone": "(11) 4704-7008",
      "website": "",
      "rating": 4.0,
      "totalRatings": 52,
      "coordinate": {
        "latitude": -23.5789,
        "longitude": -46.7822
      },
      "description": "Unidade básica de saúde com atendimento à família",
      "openingHours": "Aberto agora",
      "isRealData": true
    }
  ],
  "metadata": {
    "totalClinics": 27,
    "lastUpdated": "2024-01-15",
    "source": "Dados reais de clínicas e hospitais de São Paulo e Embu das Artes",
    "description": "Este arquivo contém dados reais de estabelecimentos de saúde de São Paulo e Embu das Artes, incluindo UBS, hospitais e clínicas especializadas em nutrição.",
    "regions": {
      "sao_paulo": 12,
      "embu_das_artes": 15
    }
  }
} 